[{"name":"Autoshop Solutions","phone":"(919) 342-6024","website":"http:\/\/www.autoshopsolutions.com","address":"942 Windy Road","city":"Apex","state":"NC","zip":"27502","lat":"35.7467","lng":"-78.8437"},{"name":"C.C. Mangum Consulting","phone":"(919) 868-8179","website":"http:\/\/www.ccmangum.com","address":"PO Box 98895","city":"Raleigh","state":"NC","zip":"27624","lat":"35.8423","lng":"-78.6337"},{"name":"Farragut Systems","phone":"(919) 572-0901","website":"http:\/\/www.farragut.com","address":"2775 Meridian Parkway","city":"Durham","state":"NC","zip":"27713","lat":"35.9147","lng":"-78.8996"},{"name":"Fred Smith Company","phone":"(919) 783-5700","website":"http:\/\/www.fredsmithcompany.net","address":"6105 Chapel Hill Rd","city":"Raleigh","state":"NC","zip":"27607","lat":"35.7894","lng":"-78.7273"},{"name":"Innovative Talent Solutions","phone":"(919) 841-5445","website":"http:\/\/www.onlineits.com","address":"8362 Six Forks Rd","city":"Raleigh","state":"NC","zip":"27615","lat":"35.8932","lng":"-78.6488"},{"name":"The Pantry Inc.","phone":"(919) 775-1926","website":"http:\/\/www.thepantry.com","address":"1801 Douglas Dr","city":"Sanford","state":"NC","zip":"27330","lat":"35.4961","lng":"-79.1993"}]
